[{"id":1,"name":"Coffee House","address":"06 Village Trail","city":"Louisville","state":"KY","postal_code":"40250","latitude":38.189,"longitude":-85.6768,"rating":2.4,"img":"http://dummyimage.com/111x100.png/cc0000/ffffff","tags":[{"coffee":false,"tea":true,"matcha":true,"cozy":true,"modern":false,"good_wifi":true,"parking_lot":true,"wheelchair_accessible":false},{"coffee":false,"tea":true,"matcha":true,"cozy":false,"modern":false,"good_wifi":true,"parking_lot":true,"wheelchair_accessible":false},{"coffee":true,"tea":false,"matcha":true,"cozy":false,"modern":true,"good_wifi":false,"parking_lot":false,"wheelchair_accessible":true},{"coffee":false,"tea":false,"matcha":true,"cozy":false,"modern":true,"good_wifi":true,"parking_lot":true,"wheelchair_accessible":false},{"coffee":false,"tea":false,"matcha":true,"cozy":false,"modern":false,"good_wifi":true,"parking_lot":true,"wheelchair_accessible":true}]},
{"id":2,"name":"The Brew Spot","address":"54739 Bartelt Hill","city":"London","state":"KY","postal_code":"40745","latitude":37.1376,"longitude":-84.1156,"rating":3.5,"img":"http://dummyimage.com/111x100.png/ff4444/ffffff","tags":[]},
{"id":3,"name":"The Roastery","address":"0 Kensington Avenue","city":"Louisville","state":"KY","postal_code":"40220","latitude":38.2149,"longitude":-85.6245,"rating":0.3,"img":"http://dummyimage.com/198x100.png/cc0000/ffffff","tags":[]},
{"id":4,"name":"Mocha Madness","address":"0 Hudson Crossing","city":"Lexington","state":"KY","postal_code":"40515","latitude":37.9651,"longitude":-84.4708,"rating":1.7,"img":"http://dummyimage.com/144x100.png/5fa2dd/ffffff","tags":[{"coffee":true,"tea":true,"matcha":true,"cozy":true,"modern":true,"good_wifi":true,"parking_lot":false,"wheelchair_accessible":true},{"coffee":false,"tea":false,"matcha":true,"cozy":true,"modern":false,"good_wifi":false,"parking_lot":true,"wheelchair_accessible":true},{"coffee":true,"tea":true,"matcha":true,"cozy":true,"modern":true,"good_wifi":false,"parking_lot":true,"wheelchair_accessible":false}]},
{"id":5,"name":"The Brew Spot","address":"77 Dorton Way","city":"Lexington","state":"KY","postal_code":"40505","latitude":38.0612,"longitude":-84.4583,"rating":3.7,"img":"http://dummyimage.com/117x100.png/5fa2dd/ffffff","tags":[{"coffee":true,"tea":true,"matcha":false,"cozy":false,"modern":false,"good_wifi":false,"parking_lot":true,"wheelchair_accessible":true},{"coffee":true,"tea":false,"matcha":true,"cozy":true,"modern":true,"good_wifi":false,"parking_lot":false,"wheelchair_accessible":true},{"coffee":false,"tea":false,"matcha":false,"cozy":true,"modern":true,"good_wifi":false,"parking_lot":true,"wheelchair_accessible":true},{"coffee":true,"tea":false,"matcha":true,"cozy":true,"modern":true,"good_wifi":false,"parking_lot":false,"wheelchair_accessible":true}]},
{"id":6,"name":"Cafe Central","address":"02 Schlimgen Junction","city":"Lexington","state":"KY","postal_code":"40524","latitude":38.0283,"longitude":-84.4715,"rating":1.5,"img":"http://dummyimage.com/174x100.png/cc0000/ffffff","tags":[]},
{"id":7,"name":"Caffeine Corner","address":"81079 Garrison Road","city":"Louisville","state":"KY","postal_code":"40205","latitude":38.2222,"longitude":-85.6885,"rating":4.4,"img":"http://dummyimage.com/177x100.png/ff4444/ffffff","tags":[{"coffee":false,"tea":true,"matcha":false,"cozy":false,"modern":false,"good_wifi":true,"parking_lot":false,"wheelchair_accessible":true},{"coffee":false,"tea":false,"matcha":true,"cozy":false,"modern":true,"good_wifi":true,"parking_lot":true,"wheelchair_accessible":false}]},
{"id":8,"name":"Mocha Madness","address":"7 Schurz Parkway","city":"Migrate","state":"KY","postal_code":"41905","latitude":38.0638,"longitude":-84.5027,"rating":3.4,"img":"http://dummyimage.com/199x100.png/cc0000/ffffff","tags":[{"coffee":false,"tea":true,"matcha":true,"cozy":true,"modern":false,"good_wifi":false,"parking_lot":true,"wheelchair_accessible":true}]},
{"id":9,"name":"Cup & Co.","address":"77 Walton Pass","city":"Louisville","state":"KY","postal_code":"40298","latitude":38.189,"longitude":-85.6768,"rating":0.0,"img":"http://dummyimage.com/160x100.png/dddddd/000000","tags":[{"coffee":true,"tea":true,"matcha":true,"cozy":true,"modern":true,"good_wifi":true,"parking_lot":true,"wheelchair_accessible":true},{"coffee":false,"tea":true,"matcha":true,"cozy":false,"modern":false,"good_wifi":true,"parking_lot":false,"wheelchair_accessible":false},{"coffee":true,"tea":true,"matcha":false,"cozy":false,"modern":false,"good_wifi":false,"parking_lot":false,"wheelchair_accessible":false},{"coffee":true,"tea":false,"matcha":true,"cozy":true,"modern":false,"good_wifi":false,"parking_lot":false,"wheelchair_accessible":true},{"coffee":false,"tea":true,"matcha":true,"cozy":true,"modern":true,"good_wifi":true,"parking_lot":true,"wheelchair_accessible":false}]},
{"id":10,"name":"Espresso Junction","address":"0 Rowland Park","city":"Migrate","state":"KY","postal_code":"41905","latitude":38.0638,"longitude":-84.5027,"rating":1.4,"img":"http://dummyimage.com/144x100.png/5fa2dd/ffffff","tags":[{"coffee":true,"tea":true,"matcha":false,"cozy":true,"modern":false,"good_wifi":false,"parking_lot":true,"wheelchair_accessible":false},{"coffee":false,"tea":true,"matcha":true,"cozy":true,"modern":false,"good_wifi":false,"parking_lot":true,"wheelchair_accessible":true},{"coffee":true,"tea":true,"matcha":false,"cozy":true,"modern":false,"good_wifi":false,"parking_lot":true,"wheelchair_accessible":false},{"coffee":false,"tea":false,"matcha":false,"cozy":true,"modern":true,"good_wifi":false,"parking_lot":true,"wheelchair_accessible":true}]},
{"id":11,"name":"Cup & Co.","address":"9209 Mariners Cove Parkway","city":"Louisville","state":"KY","postal_code":"40250","latitude":38.189,"longitude":-85.6768,"rating":4.3,"img":"http://dummyimage.com/182x100.png/dddddd/000000","tags":[{"coffee":false,"tea":false,"matcha":false,"cozy":false,"modern":true,"good_wifi":false,"parking_lot":true,"wheelchair_accessible":false},{"coffee":true,"tea":true,"matcha":false,"cozy":false,"modern":false,"good_wifi":false,"parking_lot":true,"wheelchair_accessible":true},{"coffee":true,"tea":true,"matcha":false,"cozy":false,"modern":false,"good_wifi":false,"parking_lot":false,"wheelchair_accessible":true},{"coffee":false,"tea":false,"matcha":false,"cozy":false,"modern":true,"good_wifi":true,"parking_lot":false,"wheelchair_accessible":false},{"coffee":false,"tea":true,"matcha":true,"cozy":false,"modern":false,"good_wifi":true,"parking_lot":false,"wheelchair_accessible":false}]},
{"id":12,"name":"The Brew Spot","address":"893 Bartelt Place","city":"Louisville","state":"KY","postal_code":"40298","latitude":38.189,"longitude":-85.6768,"rating":4.4,"img":"http://dummyimage.com/200x100.png/cc0000/ffffff","tags":[{"coffee":true,"tea":false,"matcha":false,"cozy":false,"modern":true,"good_wifi":true,"parking_lot":false,"wheelchair_accessible":true},{"coffee":true,"tea":true,"matcha":true,"cozy":true,"modern":false,"good_wifi":false,"parking_lot":true,"wheelchair_accessible":true}]},
{"id":13,"name":"Cup & Co.","address":"8 Summerview Point","city":"Louisville","state":"KY","postal_code":"40210","latitude":38.2306,"longitude":-85.7905,"rating":4.6,"img":"http://dummyimage.com/182x100.png/dddddd/000000","tags":[{"coffee":false,"tea":false,"matcha":false,"cozy":true,"modern":false,"good_wifi":false,"parking_lot":false,"wheelchair_accessible":true},{"coffee":false,"tea":true,"matcha":false,"cozy":true,"modern":false,"good_wifi":false,"parking_lot":true,"wheelchair_accessible":true},{"coffee":false,"tea":true,"matcha":true,"cozy":true,"modern":true,"good_wifi":true,"parking_lot":false,"wheelchair_accessible":false},{"coffee":false,"tea":true,"matcha":false,"cozy":false,"modern":true,"good_wifi":true,"parking_lot":true,"wheelchair_accessible":true},{"coffee":false,"tea":true,"matcha":true,"cozy":false,"modern":true,"good_wifi":false,"parking_lot":true,"wheelchair_accessible":false}]},
{"id":14,"name":"Espresso Junction","address":"6 Hayes Court","city":"London","state":"KY","postal_code":"40745","latitude":37.1376,"longitude":-84.1156,"rating":4.5,"img":"http://dummyimage.com/142x100.png/dddddd/000000","tags":[{"coffee":false,"tea":false,"matcha":false,"cozy":true,"modern":false,"good_wifi":true,"parking_lot":false,"wheelchair_accessible":false},{"coffee":false,"tea":false,"matcha":false,"cozy":true,"modern":true,"good_wifi":false,"parking_lot":true,"wheelchair_accessible":false},{"coffee":true,"tea":true,"matcha":false,"cozy":false,"modern":true,"good_wifi":false,"parking_lot":true,"wheelchair_accessible":false}]},
{"id":15,"name":"The Brew Spot","address":"34244 Knutson Center","city":"Louisville","state":"KY","postal_code":"40287","latitude":38.189,"longitude":-85.6768,"rating":1.8,"img":"http://dummyimage.com/149x100.png/cc0000/ffffff","tags":[{"coffee":false,"tea":false,"matcha":false,"cozy":true,"modern":true,"good_wifi":true,"parking_lot":true,"wheelchair_accessible":false},{"coffee":false,"tea":true,"matcha":true,"cozy":false,"modern":false,"good_wifi":true,"parking_lot":true,"wheelchair_accessible":true},{"coffee":false,"tea":false,"matcha":true,"cozy":true,"modern":true,"good_wifi":false,"parking_lot":true,"wheelchair_accessible":false},{"coffee":false,"tea":true,"matcha":true,"cozy":false,"modern":false,"good_wifi":false,"parking_lot":true,"wheelchair_accessible":false},{"coffee":true,"tea":true,"matcha":true,"cozy":false,"modern":true,"good_wifi":false,"parking_lot":true,"wheelchair_accessible":false}]}]
